[
    {
        "address": "Schwarzburg straße 39",
        "postalCode": "60318",
        "city": "Frankfurt am Main",
        "admin": "Maharashtra",
        "country": "Germany",
        "population_proper": "12691836",
        "iso2": "IN",
        "capital": "admin",
        "lat": "50.1106444",
        "lng": " 8.6820917",
        "population": "18978000"
    },
    {
        "address": "Carretera Nacional 340",
        "postalCode": "29604",
        "city": "Marbella, Costa del Sol ",
        "admin": "Delhi",
        "country": "Spain",
        "population_proper": "7633213",
        "iso2": "IN",
        "capital": "admin",
        "lat": "36.496781799999994",
        "lng": "-4.801693796694211",
        "population": "15926000"
    },
    {
        "address": "Straße der Republik 8",
        "postalCode": "65203",
        "city": "Wiesbaden",
        "admin": "West Bengal",
        "country": "Germany",
        "population_proper": "4631392",
        "iso2": "IN",
        "capital": "admin",
        "lat": "50.0820384",
        "lng": "8.2416556",
        "population": "14787000"
    },
    {
        "address": "Friedberger Landstraße 1",
        "postalCode": "63486",
        "city": "Darmstadt",
        "admin": "Tamil Nadu ",
        "country": "Germany",
        "population_proper": "4328063",
        "iso2": "IN",
        "capital": "admin",
        "lat": "49.872775",
        "lng": "8.651177",
        "population": "7163000"
    },
    {
        "address": "Elisenstraße 24",
        "postalCode": "63739",
        "city": "Aschaffenburg",
        "admin": "Karnataka",
        "country": "Germany",
        "population_proper": "5104047",
        "iso2": "IN",
        "capital": "admin",
        "lat": "49.9740542",
        "lng": "9.1493636",
        "population": "6787000"
    },
    {
        "address": "Kamenzer Damm 30",
        "postalCode": "12249",
        "city": "Berlin",
        "admin": "Andhra Pradesh",
        "country": "Germany",
        "population_proper": "3597816",
        "iso2": "IN",
        "capital": "admin",
        "lat": "50.970097",
        "lng": "9.687096",
        "population": "6376000"
    },
    {
        "address": "Avenida del Mediterráneo, 17",
        "postalCode": "1050",
        "city": "Madrid",
        "admin": "Gujarat",
        "country": "Belgium",
        "population_proper": "3719710",
        "iso2": "IN",
        "capital": "minor",
        "lat": "50.6402809",
        "lng": "4.6667145",
        "population": "5375000"
    },
    {
        "address": " Carrer de les Alberedes, 6-12, Pol. Ind",
        "postalCode": "08830",
        "city": "Barcelona",
        "admin": "West Bengal",
        "country": "Spain",
        "population_proper": "1027672",
        "iso2": "IN",
        "capital": "",
        "lat": "41.3828939",
        "lng": " 2.1774322",
        "population": "4841638"
    }
]